objectid,filename,title,creator,date,description,subject,location,latitude,longitude,type,format,language
coll002,coll002balkh_landscape.jpg,Landscape in Balkh,"Nezam, Yama",2017-04-07,Lanscape view of fields and homes in Balkh ,Landscape; Field,"Balkh, Afghanistan",36.76690485,66.89455801,Image;StillImage,image/jpeg,
coll003,coll003balkh_green_mosque.jpg,Green Mosque in Balkh,"Nezam, Yama",2017-04-07,Front of Green Mosque in Balkh ,Landmark; Mosque,"Balkh, Afghanistan",36.75983614,66.8960443,Image;StillImage,image/jpeg,
coll004,coll004kabul_afghan_dog.jpg,Afghan hound in Kabul,"Nezam, Yama",2017-01-14,Afghan hound in Kabul,Animal; Dog; Afghan Hound,"Kabul, Afghanistan",34.53697139,69.17818437,Image;StillImage,image/jpeg,
coll005,coll005kabul_arg_presidential_palace.jpg,Arg in Kabul,"Nezam, Yama",2017-01-07,Interior of the ARG which serves as the presidential palace in Kabul,Landmark; Presidential Palace; Arg,"Kabul, Afghanistan",34.52537993,69.17679334,Image;StillImage,image/jpeg,
coll006,coll006kabul_arg_presidential_palace_ceiling.jpg,Arg in Kabul (2),"Nezam, Yama",2017-04-06,Ceiling architecture inside of the ARG which serves as the presidential palace in Kabul,Landmark; Presidential Palace; Arg,"Kabul, Afghanistan",34.52537993,69.17679334,Image;StillImage,image/jpeg,"eng, fas"
coll007,coll007kabul_bagh_e_babur.jpg,Mosque in Bagh-e Babur Garden in Kabul,"Nezam, Yama",2017-11-03,"View of mosque, built by Shah Jahan, at Bagh-e Babur Garden in Kabul. The garden is the final resting location of the first Mughal Emperor, Babur.",Landmark; Mosque; Bagh-e Babur Garden,"Kabul, Afghanistan",34.50306187,69.15810729,Image;StillImage,image/jpeg,"eng, fas"
coll008,coll008kabul_statue.jpg,Statue in Bagh-e Babur Garden in Kabul,"Nezam, Yama",2017-11-03,"Statue in Bagh-e Babur Garden in Kabul with inscription, ""12th Silk Road Mayors Forum"" ",Landmark; Statue; Bagh-e Babur Garden,"Kabul, Afghanistan",34.5030045,69.15955635,Image;StillImage,image/jpeg,"eng, fas"
coll009,coll009kabul_fruit_stand.jpg,Store in Bagh-e Babur Garden in Kabul,"Nezam, Yama",2017-11-03,Fruit stand in a small shop at Bagh-e Babur Garden in Kabul,Fruit; Shop; Bagh-e Babur Garden,"Kabul, Afghanistan",34.50188492,69.15714218,Image;StillImage,image/jpeg,"eng, fas"
coll010,coll010kabul_paghman_hill_castle.jpg,Paghman Hill Castle front ,"Nezam, Yama",2017-07-28,Front view of Paghman Hill Castle which is a palace in the town of Paghman in Kabul,Landmark; Paghman Hill Castle; Palace,"Kabul, Afghanistan",34.58673069,68.96880893,Image;StillImage,image/jpeg,
coll011,coll011kabul_paghman_hill_castle.jpg,Paghman Hill Castle exterior,"Nezam, Yama",2017-07-28,Exterior and fountain view of Paghman Hill Castle which is a palace in the town of Paghman in Kabul,Landmark; Paghman Hill Castle; Palace,"Kabul, Afghanistan",34.58673069,68.96880893,Image;StillImage,image/jpeg,
coll012,coll012kabul_building_by_king_abdul_rahman.jpg,Kuthi E Baghtscha in Kabul,"Nezam, Yama",2017-04-09,"Kuthi E Baghtscha, built by King Abdul Rahman in 1880 and restored in 2012",Landmark; Kuthi E Baghtscha; King Abdul Rahman,"Kabul, Afghanistan",34.52362748,69.17816417,Image;StillImage,image/jpeg,"eng, fas"
coll013,coll013kabul_outdoor.jpg,Courtyard in Kabul,"Nezam, Yama",2017-08-04,Courtyard in Kabul with stone pathway and gazebos,Courtyard; Gazebos,"Kabul, Afghanistan",34.54063673,69.16936218,Image;StillImage,image/jpeg,
coll014,coll014kabul_field.jpg,Downtown Kabul,"Nezam, Yama",2018-05-14,"Field, flowers, and clock tower in downtown area of Kabul",Field; Flowers; Clock tower; Downtown,"Kabul, Afghanistan",34.52514328,69.18188708,Image;StillImage,image/jpeg,
coll015,coll015kabul_park_and_benches.jpg,Trees and benches in Kabul,"Nezam, Yama",2017-12-15,Trees and benches in downtown area of Kabul during winter,Trees; Benches; Downtown,"Kabul, Afghanistan",34.52316025,69.17885562,Image;StillImage,image/jpeg,
coll016,coll016kabul_city_view.jpg,City view of Kabul ,"Nezam, Yama",2017-11-03,City view of Kabul from the road,City view,"Kabul, Afghanistan",34.50994332,69.16007927,Image;StillImage,image/jpeg,
coll017,coll017mazarcity.jpg,City view of Mazar-i-Sharif,"Nezam, Yama",2017-04-07,City view of Mazar-i-Sharif,City view,"Kabul, Afghanistan",36.708132,67.10667146,Image;StillImage,image/jpeg,
coll018,coll018mazarhotel.jpg,Hotel in Mazar-i-Sharif,"Nezam, Yama",2017-04-07,Courtyard of a hotel in Mazar-i-Sharif,Courtyard; Hotel,"Mazar-i-Sharif, Afghanistan",36.71929818,67.21661013,Image;StillImage,image/jpeg,
coll019,coll019mazarairport.jpg,Airport in Mazar-i-Sharif,"Nezam, Yama",2017-04-08,Airport in Mazari-i-Sharif with mountains in the background,Airport; Mountains,"Mazar-i-Sharif, Afghanistan",36.71110265,67.20891867,Image;StillImage,image/jpeg,
coll020,coll020mazarmountains.jpg,Mountains in Mazar-i-Sharif ,"Nezam, Yama",2017-04-08,Aerial view of mountains over Mazar-i-Sharif,Mountains,"Mazar-i-Sharif, Afghanistan",36.71023051,67.17706386,Image;StillImage,image/jpeg,
coll021,coll021mazarlandscape.jpg,Landscape in Mazar-i-Sharif,"Nezam, Yama",2017-04-07,Landscape view of fields and mountains in Mazar-i-Sharif,Landscape; Field; Mountains,"Mazar-i-Sharif, Afghanistan",36.65049074,67.12934364,Image;StillImage,image/jpeg,